PC_time_stamp,cmd_steering,cmd_v,path_target_point_index,GPSWeek,GPSTime,utm_x,utm_y,Latitude,Longitude,Heading,V,Altitude,Warming,Pitch,Roll,gyro_x,gyro_y,gyro_z,acc_x,acc_y,acc_z,Ve,Vn,Vu,NSV1,NSV2,Status,Age,path_x_y_file,target_speed,Kp,threshold_distance,tractor_info_dict,realtime_lateral_error,backward_flag,machine_operation_status,task_index,is_endtask,driving_mode,machine_operation_enabled
1699349229.4894462,16.754947560065677,0.5,0,2287,206835.67,570888.8087826539,4089420.1956123435,36.94818266,117.79617059,1.12,0.027,15.99,2.0
1699349229.5034301,18.32654632218026,0.5,0,2287,206845.21,570888.760026809,4089420.4892040812,36.94818531,117.79617007,0.94,0.139,15.99,2.0
1699349229.5239015,12.61885117334846,0.5,0,2287,206847.73,570888.8360150146,4089421.625895364,36.94819555,117.79617103,3.32,1.037,16.01,2.0
1699349229.5451088,12.421050324537687,0.5,0,2287,206847.75,570888.8385101128,4089421.6469953815,36.94819574,117.79617106,3.39,1.042,16.01,2.0
1699349229.5654118,12.220617976515497,0.5,0,2287,206847.77,570888.839224434,4089421.6680805217,36.94819593,117.79617107,3.47,1.046,16.01,2.0
1699349229.586484,12.006619679592154,0.5,0,2287,206847.79,570888.8408291426,4089421.6891731,36.94819612,117.79617109,3.55,1.051,16.01,2.0
1699349229.6063867,11.805742473490458,0.5,0,2287,206847.81,570888.8415434635,4089421.7102582413,36.94819631,117.7961711,3.63,1.053,16.01,2.0
1699349229.6265738,11.727062527975612,0.5,0,2287,206847.83,570888.8351902821,4089421.7246277644,36.94819644,117.79617103,3.7,1.054,16.0,2.0
1699349229.646696,11.553110176844612,0.5,0,2287,206847.85,570888.834123828,4089421.7456980296,36.94819663,117.79617102,3.78,1.052,16.0,2.0
1699349229.667084,11.379153877284898,0.5,0,2287,206847.87,570888.8330573718,4089421.7667682962,36.94819682,117.79617101,3.86,1.038,16.0,2.0
1699349229.6870475,11.234385420697176,0.5,0,2287,206847.89,570888.8319909178,4089421.7878385615,36.94819701,117.796171,3.93,1.015,16.0,2.0
1699349229.7071242,11.055605190568865,0.5,0,2287,206847.91,570888.8309429971,4089421.806690121,36.94819718,117.79617099,4.01,0.987,16.0,2.0
1699349229.7270832,10.908484567461425,0.5,0,2287,206847.93,570888.8298858098,4089421.8266510344,36.94819736,117.79617098,4.08,0.957,16.0,2.0
1699349229.7465224,10.729674027884702,0.5,0,2287,206847.95,570888.8288378891,4089421.8455025954,36.94819753,117.79617097,4.16,0.928,16.0,2.0
1699349229.7667356,10.563967390171372,0.5,0,2287,206847.97,570888.8286896227,4089421.8632522402,36.94819769,117.79617097,4.23,0.908,16.0,2.0
1699349229.7877514,10.41443437253991,0.5,0,2287,206847.99,570888.8276416997,4089421.8821038003,36.94819786,117.79617096,4.3,0.892,16.0,2.0
1699349229.8075469,10.216776935831923,0.5,0,2287,206848.01,570888.8275026998,4089421.898744092,36.94819801,117.79617096,4.38,0.876,16.0,2.0
1699349229.828613,10.014418049697428,0.5,0,2287,206848.03,570888.8300070649,4089421.9187347554,36.94819819,117.79617099,4.45,0.868,16.01,2.0
1699349229.848615,9.816430374417434,0.5,0,2287,206848.05,570888.8298680651,4089421.935375047,36.94819834,117.79617099,4.53,0.86,16.01,2.0
1699349229.8690066,9.606918703207187,0.5,0,2287,206848.07,570888.830610186,4089421.95313213,36.9481985,117.796171,4.61,0.856,16.0,2.0
1699349229.8929682,9.410278749665208,0.5,0,2287,206848.09,570888.8322519634,4089421.969787298,36.94819865,117.79617102,4.68,0.862,16.0,2.0
1699349229.913105,9.22996491799157,0.5,0,2287,206848.11,570888.8329940845,4089421.98754438,36.94819881,117.79617103,4.75,0.87,16.0,2.0
1699349229.9325032,9.06102138561924,0.5,0,2287,206848.13,570888.8328550847,4089422.0041846717,36.94819896,117.79617103,4.82,0.876,16.0,2.0
1699349229.9527617,8.910160770775652,0.5,0,2287,206848.15,570888.8335972056,4089422.021941755,36.94819912,117.79617104,4.88,0.882,16.0,2.0
1699349229.972435,8.728134606092379,0.5,0,2287,206848.17,570888.8325585516,4089422.039683962,36.94819928,117.79617103,4.96,0.885,16.0,2.0
1699349229.9823828,8.591345747740133,0.5,0,2287,206848.19,570888.832410285,4089422.057433607,36.94819944,117.79617103,5.02,0.879,16.0,2.0
1699349230.0027838,8.409335291471814,0.5,0,2287,206848.21,570888.8313716311,4089422.0751758143,36.9481996,117.79617102,5.1,0.876,16.0,2.0
1699349230.023202,7.826989663384087,0.5,0,2287,206848.23,570888.8502365772,4089422.0553636537,36.94819942,117.79617123,5.18,0.858,16.0,2.0
1699349230.043533,7.641195596310385,0.5,0,2287,206848.25,570888.84920719,4089422.0719965077,36.94819957,117.79617122,5.26,0.848,16.0,2.0
1699349230.0638418,7.425531572863479,0.5,0,2287,206848.27,570888.8481778003,4089422.0886293626,36.94819972,117.79617121,5.35,0.84,16.0,2.0
1699349230.0840487,7.242301791996905,0.5,0,2287,206848.29,570888.8471391462,4089422.1063715694,36.94819988,117.7961712,5.43,0.833,16.0,2.0
1699349230.1043732,7.0239560924371265,0.5,0,2287,206848.31,570888.8461190255,4089422.121895071,36.94820002,117.79617119,5.52,0.824,16.0,2.0
1699349230.1253645,6.793794896356121,0.5,0,2287,206848.33,570888.8459800256,4089422.138535363,36.94820017,117.79617119,5.61,0.815,16.0,2.0
1699349230.1449587,6.563524349563545,0.5,0,2287,206848.35,570888.8458410257,4089422.1551756556,36.94820032,117.79617119,5.7,0.809,16.0,2.0
1699349230.1652706,6.346075988187073,0.5,0,2287,206848.37,570888.84660168,4089422.1707140324,36.94820046,117.7961712,5.78,0.807,16.0,2.0
1699349230.185615,6.161184657903083,0.5,0,2287,206848.39,570888.8473530676,4089422.1873617624,36.94820061,117.79617121,5.85,0.807,16.0,2.0
1699349230.2059195,6.003628798568336,0.5,0,2287,206848.41,570888.848113724,4089422.2029001387,36.94820075,117.79617122,5.91,0.809,15.99,2.0
1699349230.226711,5.956786149305909,0.5,0,2287,206848.43,570888.8443946387,4089422.2217293866,36.94820092,117.79617118,5.96,0.816,15.99,2.0
1699349230.2464964,5.847628516969528,0.5,0,2287,206848.45,570888.8460364138,4089422.2383845546,36.94820107,117.7961712,6.0,0.823,15.99,2.0
1699349230.2666476,5.738461558891253,0.5,0,2287,206848.47,570888.847678191,4089422.2550397213,36.94820122,117.79617122,6.04,0.831,15.99,2.0
1699349230.2886117,5.65937638994251,0.5,0,2287,206848.49,570888.8493199662,4089422.2716948884,36.94820137,117.79617124,6.07,0.843,15.99,2.0
1699349230.307913,5.580304423343179,0.5,0,2287,206848.51,570888.8509617412,4089422.2883500555,36.94820152,117.79617126,6.1,0.857,15.99,2.0
1699349230.3283596,5.534057401310188,0.5,0,2287,206848.53,570888.8525942517,4089422.306114576,36.94820168,117.79617128,6.12,0.872,15.99,2.0
1699349230.352525,5.487850905265687,0.5,0,2287,206848.55,570888.8542267602,4089422.3238790967,36.94820184,117.7961713,6.14,0.892,15.99,2.0
1699349230.3725693,5.441685195044597,0.5,0,2287,206848.57,570888.8558592708,4089422.3416436156,36.948202,117.79617132,6.16,0.911,15.99,2.0
1699349230.392398,5.398288500372202,0.5,0,2287,206848.59,570888.8574825125,4089422.3605174893,36.94820217,117.79617134,6.18,0.928,15.99,2.0
1699349230.4122927,5.352212128265064,0.5,0,2287,206848.61,570888.859115023,4089422.37828201,36.94820233,117.79617136,6.2,0.945,15.99,2.0
1699349230.43241,5.333056426582156,0.5,0,2287,206848.63,570888.8589760232,4089422.394922301,36.94820248,117.79617136,6.22,0.961,15.99,2.0
1699349230.4524772,5.2597348087979805,0.5,0,2287,206848.65,570888.8605992649,4089422.4137961753,36.94820265,117.79617138,6.25,0.978,15.99,2.0
1699349230.4622238,5.18645805741077,0.5,0,2287,206848.67,570888.8622225088,4089422.4326700475,36.94820282,117.7961714,6.28,0.994,15.99,2.0
1699349230.4830353,5.101090201031401,0.5,0,2287,206848.69,570888.8647268711,4089422.45266071,36.948203,117.79617143,6.31,1.014,15.99,2.0
1699349230.5030577,5.030655466722094,0.5,0,2287,206848.71,570888.8663408484,4089422.4726439365,36.94820318,117.79617145,6.34,1.031,15.99,2.0
1699349230.5229726,4.963065979913638,0.5,0,2287,206848.73,570888.8679455566,4089422.4937365153,36.94820337,117.79617147,6.37,1.05,15.99,2.0
1699349230.5435743,4.865389056482139,0.5,0,2287,206848.75,570888.8695502672,4089422.514829094,36.94820356,117.79617149,6.41,1.072,15.99,2.0
1699349230.5633817,4.797955414824797,0.5,0,2287,206848.77,570888.8711549733,4089422.5359216724,36.94820375,117.79617151,6.44,1.092,15.99,2.0
1699349230.5840974,4.718337777700916,0.5,0,2287,206848.79,570888.8736408047,4089422.5581310415,36.94820395,117.79617154,6.47,1.11,15.99,2.0
1699349230.6044726,4.653862621648874,0.5,0,2287,206848.81,570888.8752362485,4089422.5803329726,36.94820415,117.79617156,6.5,1.124,15.99,2.0
1699349230.6259305,4.608466118549303,0.5,0,2287,206848.83,570888.8750879818,4089422.598082618,36.94820431,117.79617156,6.53,1.139,15.99,2.0
1699349230.6444654,4.5442309015900815,0.5,0,2287,206848.85,570888.8766834234,4089422.620284549,36.94820451,117.79617158,6.56,1.156,15.99,2.0
1699349230.66475,4.4829488499430985,0.5,0,2287,206848.87,570888.8782695984,4089422.6435958333,36.94820472,117.7961716,6.59,1.171,15.99,2.0
1699349230.6858718,4.42179272168648,0.5,0,2287,206848.89,570888.8798557755,4089422.6669071177,36.94820493,117.79617162,6.62,1.186,15.99,2.0
1699349230.7052984,4.345473289841569,0.5,0,2287,206848.91,570888.8823323401,4089422.6902258396,36.94820514,117.79617165,6.65,1.198,15.99,2.0
1699349230.7261715,4.284534625013586,0.5,0,2287,206848.93,570888.8839185149,4089422.713537123,36.94820535,117.79617167,6.68,1.205,15.99,2.0
1699349230.7466753,4.241982786859894,0.5,0,2287,206848.95,570888.8846050358,4089422.737950323,36.94820557,117.79617168,6.71,1.21,15.99,2.0
1699349230.7663567,4.181352932215637,0.5,0,2287,206848.97,570888.8861912128,4089422.7612616075,36.94820578,117.7961717,6.74,1.214,15.99,2.0
1699349230.787429,4.123767816111375,0.5,0,2287,206848.99,570888.887768121,4089422.785682244,36.948206,117.79617172,6.77,1.217,15.99,2.0
1699349230.8087196,4.063413840391889,0.5,0,2287,206849.01,570888.8893542981,4089422.8089935286,36.94820621,117.79617174,6.8,1.214,16.0,2.0
1699349230.8273795,4.00319436520591,0.5,0,2287,206849.03,570888.890940473,4089422.832304812,36.94820642,117.79617176,6.83,1.21,16.0,2.0
1699349230.8483236,3.927547907372956,0.5,0,2287,206849.05,570888.8934170374,4089422.855623534,36.94820663,117.79617179,6.86,1.202,16.0,2.0
1699349230.8685458,3.853632213380477,0.5,0,2287,206849.07,570888.8942054915,4089422.8678338537,36.94820674,117.7961718,6.89,1.184,15.99,2.0
1699349230.8897936,3.809337707262975,0.5,0,2287,206849.09,570888.8949012788,4089422.8911376996,36.94820695,117.79617181,6.92,1.169,16.0,2.0
1699349230.909935,3.7622846107254353,0.5,0,2287,206849.11,570888.8956063329,4089422.9133321936,36.94820715,117.79617182,6.95,1.154,16.0,2.0
1699349230.9306393,3.699727617281549,0.5,0,2287,206849.13,570888.8972017765,4089422.9355341247,36.94820735,117.79617184,6.98,1.138,16.0,2.0
1699349230.9536302,3.65302546934025,0.5,0,2287,206849.15,570888.8979068307,4089422.9577286183,36.94820755,117.79617185,7.01,1.124,16.0,2.0
1699349230.9726272,3.573236012688974,0.5,0,2287,206849.17,570888.8986211513,4089422.97881376,36.94820774,117.79617186,7.05,1.115,16.0,2.0
1699349230.992114,3.5269118840731,0.5,0,2287,206849.19,570888.8993262054,4089423.0010082535,36.94820794,117.79617187,7.08,1.105,16.0,2.0
1699349231.0134826,3.4474706507584107,0.5,0,2287,206849.21,570888.9000405284,4089423.022093394,36.94820813,117.79617188,7.12,1.093,16.0,2.0
1699349231.0220218,3.398485728090494,0.5,0,2287,206849.23,570888.9007548466,4089423.043178535,36.94820832,117.79617189,7.15,1.082,16.0,2.0
1699349231.0422034,3.215332708973818,0.5,0,2287,206849.25,570888.9060879089,4089423.0443325136,36.94820833,117.79617195,7.18,1.06,15.99,2.0
1699349231.062309,3.1329627481665936,0.5,0,2287,206849.27,570888.9068114962,4089423.064308302,36.94820851,117.79617196,7.22,1.048,15.99,2.0
1699349231.0824869,3.065088213747305,0.5,0,2287,206849.29,570888.908425471,4089423.084291527,36.94820869,117.79617198,7.25,1.041,15.99,2.0
1699349231.102821,3.0306786624715696,0.5,0,2287,206849.31,570888.9100301813,4089423.1053841067,36.94820888,117.796172,7.27,1.039,15.99,2.0
1699349231.1231077,2.9469605836294988,0.5,0,2287,206849.33,570888.9125345433,4089423.12537477,36.94820906,117.79617203,7.3,1.039,15.99,2.0
1699349231.143389,2.896661175259234,0.5,0,2287,206849.35,570888.915029641,4089423.1464747856,36.94820925,117.79617206,7.32,1.04,15.99,2.0
1699349231.163599,2.8433127089002217,0.5,0,2287,206849.37,570888.9175340054,4089423.166465448,36.94820943,117.79617209,7.34,1.043,15.99,2.0
1699349231.1841023,2.839553526449769,0.5,0,2287,206849.39,570888.9191387134,4089423.1875580274,36.94820962,117.79617211,7.35,1.046,15.99,2.0
1699349231.204329,2.866233628240158,0.5,0,2287,206849.41,570888.9207434236,4089423.2086506067,36.94820981,117.79617213,7.35,1.049,15.99,2.0
1699349231.2245495,2.8820468275637996,0.5,0,2287,206849.43,570888.9214484774,4089423.2308451,36.94821001,117.79617214,7.36,1.052,15.99,2.0
1699349231.2447827,3.4090444090456513,0.5,0,2287,206849.45,570888.8954604301,4089423.2505977605,36.94821019,117.79617185,7.36,1.053,16.0,2.0
1699349231.2650933,3.3906700660402866,0.5,0,2287,206849.47,570888.8979555278,4089423.271697776,36.94821038,117.79617188,7.37,1.059,16.0,2.0
1699349231.285272,3.3723490386954396,0.5,0,2287,206849.49,570888.9004506231,4089423.292797793,36.94821057,117.79617191,7.38,1.07,16.0,2.0
1699349231.3088503,3.384370972155391,0.5,0,2287,206849.51,570888.9029457185,4089423.313897809,36.94821076,117.79617194,7.38,1.086,15.99,2.0
1699349231.3279068,3.353013900709887,0.5,0,2287,206849.53,570888.9063219368,4089423.3361146157,36.94821096,117.79617198,7.39,1.092,15.99,2.0
1699349231.34711,3.3045346426782913,0.5,0,2287,206849.55,570888.9088170344,4089423.357214631,36.94821115,117.79617201,7.41,1.093,15.99,2.0
1699349231.3671691,3.273193906026908,0.5,0,2287,206849.57,570888.9121932527,4089423.379431438,36.94821135,117.79617205,7.42,1.093,15.99,2.0
1699349231.3870904,3.2247889744410205,0.5,0,2287,206849.59,570888.9146883502,4089423.400531455,36.94821154,117.79617208,7.44,1.093,15.99,2.0
1699349231.4071255,3.1631637161365105,0.5,0,2287,206849.61,570888.9180645662,4089423.422748261,36.94821174,117.79617212,7.46,1.098,15.99,2.0
1699349231.427401,3.1148313876300713,0.5,0,2287,206849.63,570888.9205596637,4089423.443848277,36.94821193,117.79617215,7.48,1.099,15.99,2.0
1699349231.4476874,2.933314428515754,0.5,0,2287,206849.65,570888.9284063543,4089423.463883566,36.94821211,117.79617224,7.51,1.101,15.99,2.0
1699349231.4679055,2.8881066626237635,0.5,0,2287,206849.67,570888.9308921851,4089423.486092936,36.94821231,117.79617227,7.53,1.112,15.99,2.0
1699349231.4881206,2.7823247682443437,0.5,0,2287,206849.69,570888.9333780135,4089423.508302304,36.94821251,117.7961723,7.57,1.125,15.99,2.0
1699349231.5083864,2.7372557399828787,0.5,0,2287,206849.71,570888.9358638444,4089423.5305116735,36.94821271,117.79617233,7.59,1.138,15.99,2.0
1699349231.5319128,2.6652322642803066,0.5,0,2287,206849.73,570888.9383404062,4089423.553830396,36.94821292,117.79617236,7.62,1.157,15.99,2.0
1699349231.5520227,2.589983733674058,0.5,0,2287,206849.75,570888.940826237,4089423.576039764,36.94821312,117.79617239,7.65,1.172,15.99,2.0
1699349231.5718565,2.531592976400987,0.5,0,2287,206849.77,570888.9441931883,4089423.599365924,36.94821333,117.79617243,7.67,1.176,15.99,2.0
1699349231.592046,2.500216677017253,0.5,0,2287,206849.79,570888.9475694064,4089423.6215827307,36.94821353,117.79617247,7.68,1.177,15.99,2.0
1699349231.605272,2.424870477177284,0.5,0,2287,206849.81,570888.9518267451,4089423.644916327,36.94821374,117.79617252,7.7,1.179,15.99,2.0
1699349231.6219141,2.396791542104079,0.5,0,2287,206849.83,570888.9551936964,4089423.668242487,36.94821395,117.79617256,7.71,1.183,15.99,2.0
1699349231.6532605,2.259635114539263,0.5,0,2287,206849.85,570888.9648489612,4089423.6849645926,36.9482141,117.79617267,7.71,1.187,16.0,2.0
1699349231.663179,2.2482967812915033,0.5,0,2287,206849.87,570888.967325523,4089423.708283315,36.94821431,117.7961727,7.72,1.195,16.0,2.0
1699349231.6832411,2.253631048866152,0.5,0,2287,206849.89,570888.9706832076,4089423.732718827,36.94821453,117.79617274,7.72,1.202,16.0,2.0
1699349231.703456,2.2728096543969354,0.5,0,2287,206849.91,570888.9731597715,4089423.756037549,36.94821474,117.79617277,7.72,1.21,16.0,2.0
1699349231.7237427,2.2782407387306125,0.5,0,2287,206849.93,570888.9765174561,4089423.7804730614,36.94821496,117.79617281,7.72,1.218,16.0,2.0
1699349231.7439225,2.331327724505035,0.5,0,2287,206849.95,570888.978984751,4089423.804901136,36.94821518,117.79617284,7.71,1.227,16.0,2.0
1699349231.764305,2.336867305476072,0.5,0,2287,206849.97,570888.9823424355,4089423.8293366493,36.9482154,117.79617288,7.71,1.237,16.0,2.0
1699349231.784838,2.3935703247334805,0.5,0,2287,206849.99,570888.984800466,4089423.8548740754,36.94821563,117.79617291,7.7,1.253,16.0,2.0
1699349231.8057783,2.4469943714576234,0.5,0,2287,206850.01,570888.9872677631,4089423.8793021506,36.94821585,117.79617294,7.69,1.267,16.0,2.0
1699349231.826178,2.456173505542056,0.5,0,2287,206850.03,570888.9906161787,4089423.9048470156,36.94821608,117.79617298,7.69,1.278,16.0,2.0
1699349231.846417,2.465406660975111,0.5,0,2287,206850.05,570888.9939645964,4089423.930391881,36.94821631,117.79617302,7.69,1.288,16.0,2.0
1699349231.8664734,2.63515220756265,0.5,0,2287,206850.07,570888.9902177112,4089423.952549186,36.94821651,117.79617298,7.68,1.293,16.0,2.0
1699349231.8867471,2.627263708832494,0.5,0,2287,206850.09,570888.9944565186,4089423.9781014896,36.94821674,117.79617303,7.68,1.307,16.0,2.0
1699349231.9069562,2.6228222346946493,0.5,0,2287,206850.11,570888.9986860568,4089424.0047631445,36.94821698,117.79617308,7.68,1.319,16.0,2.0
1699349231.9273663,2.6022337771382076,0.5,0,2287,206850.13,570889.0020344722,4089424.0303080105,36.94821721,117.79617312,7.69,1.326,16.01,2.0
1699349231.9477117,2.6155558280066877,0.5,0,2287,206850.15,570889.0053736231,4089424.0569622284,36.94821745,117.79617316,7.69,1.333,16.01,2.0
1699349231.9681406,2.5986276921728995,0.5,0,2287,206850.17,570889.008712774,4089424.0836164462,36.94821769,117.7961732,7.7,1.346,16.01,2.0
1699349231.9887004,2.572881646093904,0.5,0,2287,206850.19,570889.0111522687,4089424.1113725784,36.94821794,117.79617323,7.72,1.358,16.01,2.0
1699349232.0089824,2.574134798110658,0.5,0,2287,206850.21,570889.0136010324,4089424.138019359,36.94821818,117.79617326,7.73,1.371,16.01,2.0
1699349232.0330827,3.173153426792068,0.5,0,2287,206850.23,570888.9883458412,4089424.176638454,36.94821853,117.79617298,7.74,1.394,16.01,2.0
1699349232.0531678,3.1139956926196786,0.5,0,2287,206850.25,570888.9925661149,4089424.2044094624,36.94821878,117.79617303,7.76,1.408,16.01,2.0
1699349232.0725718,3.042641158973787,0.5,0,2287,206850.27,570888.9958959968,4089424.2321730335,36.94821903,117.79617307,7.79,1.419,16.02,2.0
1699349232.0931728,2.9653752085059555,0.5,0,2287,206850.29,570889.0010066556,4089424.25995148,36.94821928,117.79617313,7.81,1.43,16.02,2.0
1699349232.1135175,2.9183033413937,0.5,0,2287,206850.31,570889.0061173165,4089424.2877299264,36.94821953,117.79617319,7.82,1.438,16.02,2.0
1699349232.1335862,2.840793483584558,0.5,0,2287,206850.33,570889.0112279753,4089424.315508372,36.94821978,117.79617325,7.84,1.442,16.02,2.0
1699349232.1533089,2.773295279540092,0.5,0,2287,206850.35,570889.0145485926,4089424.344381296,36.94822004,117.79617329,7.87,1.437,16.02,2.0
1699349232.173957,2.732533676537359,0.5,0,2287,206850.37,570889.0178784766,4089424.3721448663,36.94822029,117.79617333,7.89,1.43,16.02,2.0
1699349232.1937478,2.6653371392546714,0.5,0,2287,206850.39,570889.0211990939,4089424.4010177893,36.94822055,117.79617337,7.92,1.426,16.02,2.0
1699349232.2139444,2.6062930118081447,0.5,0,2287,206850.41,570889.0254193653,4089424.4287887984,36.9482208,117.79617342,7.94,1.421,16.02,2.0
1699349232.2229593,2.66166586054112,0.5,0,2287,206850.43,570889.0216817469,4089424.4498367514,36.94822099,117.79617338,7.97,1.414,16.02,2.0
1699349232.2433984,2.603139157030426,0.5,0,2287,206850.45,570889.0259020182,4089424.4776077596,36.94822124,117.79617343,7.99,1.41,16.02,2.0
1699349232.2644787,2.533019080675382,0.5,0,2287,206850.47,570889.0292319021,4089424.5053713303,36.94822149,117.79617347,8.02,1.401,16.02,2.0
1699349232.2848089,2.463034717777811,0.5,0,2287,206850.49,570889.032561786,4089424.533134901,36.94822174,117.79617351,8.05,1.389,16.02,2.0
1699349232.3045328,2.4196630129252674,0.5,0,2287,206850.51,570889.0359009344,4089424.5597891198,36.94822198,117.79617355,8.07,1.375,16.02,2.0
1699349232.3257089,2.361356508988071,0.5,0,2287,206850.53,570889.0401212056,4089424.5875601275,36.94822223,117.7961736,8.09,1.363,16.02,2.0
1699349232.3462906,2.3181620301483705,0.5,0,2287,206850.55,570889.0434603561,4089424.614214345,36.94822247,117.79617364,8.11,1.348,16.02,2.0
1699349232.366823,2.2750820189532175,0.5,0,2287,206850.57,570889.0467995066,4089424.640868563,36.94822271,117.79617368,8.13,1.337,16.02,2.0
1699349232.3868332,2.2090660693685042,0.5,0,2287,206850.59,570889.0510383111,4089424.666420866,36.94822294,117.79617373,8.15,1.322,16.02,2.0
1699349232.406538,2.1964910913761253,0.5,0,2287,206850.61,570889.0543774616,4089424.6930750846,36.94822318,117.79617377,8.16,1.305,16.02,2.0
1699349232.4276392,2.130473148402363,0.5,0,2287,206850.63,570889.0586162659,4089424.7186273863,36.94822341,117.79617382,8.18,1.294,16.02,2.0
1699349232.4477644,2.0442574866025267,0.5,0,2287,206850.65,570889.0646636471,4089424.7408665074,36.94822361,117.79617389,8.19,1.285,16.03,2.0
1699349232.4684432,2.0083536153595745,0.5,0,2287,206850.67,570889.068902449,4089424.7664188086,36.94822384,117.79617394,8.2,1.28,16.03,2.0
1699349232.488519,1.9809299358127057,0.5,0,2287,206850.69,570889.0713604789,4089424.791956238,36.94822407,117.79617397,8.22,1.276,16.03,2.0
1699349232.5082438,1.9840851696500565,0.5,0,2287,206850.71,570889.0738185064,4089424.8174936646,36.9482243,117.796174,8.23,1.276,16.03,2.0
1699349232.5336747,2.037385009260226,0.5,0,2287,206850.73,570889.0753861492,4089424.8430236545,36.94822453,117.79617402,8.23,1.28,16.03,2.0
1699349232.5533712,2.0950768117059004,0.5,0,2287,206850.75,570889.0769445228,4089424.8696629973,36.94822477,117.79617404,8.23,1.281,16.03,2.0
1699349232.5733266,2.1187347338903755,0.5,0,2287,206850.77,570889.0785121655,4089424.8951929878,36.948225,117.79617406,8.24,1.287,16.03,2.0
1699349232.593383,2.1771918621204036,0.5,0,2287,206850.79,570889.0800705391,4089424.92183233,36.94822524,117.79617408,8.24,1.291,16.03,2.0
1699349232.6139617,2.1817637104522407,0.5,0,2287,206850.81,570889.0825285689,4089424.947369757,36.94822547,117.79617411,8.25,1.293,16.03,2.0
1699349232.6341183,2.228547508343639,0.5,0,2287,206850.83,570889.0841147425,4089424.970681042,36.94822568,117.79617413,8.25,1.292,16.03,2.0
1699349232.6533127,2.233615146106906,0.5,0,2287,206850.85,570889.0865727722,4089424.9962184695,36.94822591,117.79617416,8.26,1.295,16.03,2.0
1699349232.6732464,2.243086431403908,0.5,0,2287,206850.87,570889.0890215354,4089425.0228652507,36.94822615,117.79617419,8.27,1.301,16.03,2.0
1699349232.6827152,2.248650920600697,0.5,0,2287,206850.89,570889.0914795628,4089425.048402678,36.94822638,117.79617422,8.28,1.307,16.03,2.0
1699349232.7038672,2.289013201575229,0.5,0,2287,206850.91,570889.0939283258,4089425.0750494585,36.94822662,117.79617425,8.28,1.313,16.03,2.0
1699349232.7242239,2.2993107161995425,0.5,0,2287,206850.93,570889.0963770887,4089425.101696239,36.94822686,117.79617428,8.29,1.315,16.03,2.0
1699349232.744403,2.3098965244746483,0.5,0,2287,206850.95,570889.0988258495,4089425.1283430182,36.9482271,117.79617431,8.3,1.315,16.03,2.0
1699349232.7649024,2.320773655086722,0.5,0,2287,206850.97,570889.1012746101,4089425.1549898,36.94822734,117.79617434,8.31,1.317,16.03,2.0
1699349232.7850463,2.3319451423414974,0.5,0,2287,206850.99,570889.103723373,4089425.1816365793,36.94822758,117.79617437,8.32,1.324,16.03,2.0
1699349232.8054073,2.343414198011919,0.5,0,2287,206851.01,570889.106172136,4089425.2082833606,36.94822782,117.7961744,8.33,1.331,16.03,2.0
1699349232.8251197,2.3952467457413786,0.5,0,2287,206851.03,570889.1059312017,4089425.237126534,36.94822808,117.7961744,8.35,1.336,16.03,2.0
1699349232.8461895,2.301225509370928,0.5,0,2287,206851.05,570889.1101700055,4089425.262678836,36.94822831,117.79617445,8.38,1.348,16.03,2.0
1699349232.8666084,2.2462744172598565,0.5,0,2287,206851.07,570889.114390276,4089425.2904498447,36.94822856,117.7961745,8.4,1.362,16.03,2.0
1699349232.8868887,2.1566142221324744,0.5,0,2287,206851.09,570889.1186198131,4089425.3171115005,36.9482288,117.79617455,8.43,1.373,16.03,2.0
1699349232.9070694,2.0878440618277008,0.5,0,2287,206851.11,570889.1219589631,4089425.343765719,36.94822904,117.79617459,8.46,1.382,16.03,2.0
1699349232.9274867,1.9723332223677013,0.5,0,2287,206851.13,570889.1261792334,4089425.3715367275,36.94822929,117.79617464,8.5,1.389,16.03,2.0
1699349232.9477456,1.877908541417102,0.5,0,2287,206851.15,570889.1295091166,4089425.3993002973,36.94822954,117.79617468,8.54,1.39,16.03,2.0
1699349232.9713392,1.8351888254193116,0.5,0,2287,206851.17,570889.1319486127,4089425.4270564313,36.94822979,117.79617471,8.57,1.389,16.03,2.0
1699349232.9922354,1.736750308961325,0.5,0,2287,206851.19,570889.1352877603,4089425.453710649,36.94823003,117.79617475,8.61,1.383,16.03,2.0
1699349233.0117285,1.694669145388241,0.5,0,2287,206851.21,570889.1377272564,4089425.4814667823,36.94823028,117.79617478,8.64,1.376,16.03,2.0
1699349233.0317957,1.16232888943356,0.5,0,2287,206851.23,570889.158104238,4089425.4938407294,36.94823039,117.79617501,8.67,1.365,16.04,2.0
1699349233.0521123,1.0930534421819178,0.5,0,2287,206851.25,570889.1614433876,4089425.520494947,36.94823063,117.79617505,8.7,1.362,16.04,2.0
1699349233.0718515,1.0454683299100072,0.5,0,2287,206851.27,570889.163892148,4089425.547141729,36.94823087,117.79617508,8.73,1.359,16.04,2.0
1699349233.0917444,0.976601429381699,0.5,0,2287,206851.29,570889.1672312977,4089425.5737959454,36.94823111,117.79617512,8.76,1.352,16.04,2.0
1699349233.1048915,0.9382931605029443,0.5,0,2287,206851.31,570889.1705704473,4089425.600450163,36.94823135,117.79617516,8.78,1.345,16.04,2.0
1699349233.1225734,0.9001559385950088,0.5,0,2287,206851.33,570889.1739095947,4089425.627104382,36.94823159,117.7961752,8.8,1.341,16.04,2.0
1699349233.1418598,0.8925841480144404,0.5,0,2287,206851.35,570889.1772487443,4089425.6537586,36.94823183,117.79617524,8.81,1.348,16.04,2.0
1699349233.1626983,0.8936379925417711,0.5,0,2287,206851.37,570889.181478281,4089425.6804202558,36.94823207,117.79617529,8.81,1.356,16.04,2.0
1699349233.182599,0.9213652864339464,0.5,0,2287,206851.39,570889.1848081639,4089425.708183827,36.94823232,117.79617533,8.81,1.369,16.04,2.0
1699349233.2033105,0.9225398764665879,0.5,0,2287,206851.41,570889.1890377006,4089425.7348454813,36.94823256,117.79617538,8.81,1.386,16.04,2.0
1699349233.2239156,1.1329122720497176,0.5,0,2287,206851.43,570889.1852352176,4089425.763658905,36.94823282,117.79617534,8.81,1.4,16.04,2.0
1699349233.243788,1.1396566514489312,0.5,0,2287,206851.45,570889.1894554875,4089425.7914299136,36.94823307,117.79617539,8.81,1.414,16.04,2.0
1699349233.264607,1.124075637676203,0.5,0,2287,206851.47,570889.1945661444,4089425.81920836,36.94823332,117.79617545,8.81,1.424,16.04,2.0
1699349233.2843559,1.1004515749532329,0.5,0,2287,206851.49,570889.1987864143,4089425.846979369,36.94823357,117.7961755,8.82,1.437,16.04,2.0
1699349233.304161,1.0543149188453271,0.5,0,2287,206851.51,570889.2038970713,4089425.874757814,36.94823382,117.79617556,8.83,1.449,16.04,2.0
1699349233.3249521,1.0355146744973178,0.5,0,2287,206851.53,570889.2081080743,4089425.9036381766,36.94823408,117.79617561,8.84,1.459,16.04,2.0
1699349233.345203,0.9864247256879136,0.5,0,2287,206851.55,570889.2123190773,4089425.932518537,36.94823434,117.79617566,8.86,1.463,16.05,2.0
1699349233.365544,0.9070436272396885,0.5,0,2287,206851.57,570889.2165300804,4089425.961398898,36.9482346,117.79617571,8.89,1.459,16.05,2.0
1699349233.3856542,0.858155351083617,0.5,0,2287,206851.59,570889.2207410833,4089425.9902792596,36.94823486,117.79617576,8.91,1.455,16.05,2.0
1699349233.4063199,0.8324378869680504,0.5,0,2287,206851.61,570889.2240616991,4089426.0191521845,36.94823512,117.7961758,8.93,1.448,16.05,2.0
1699349233.4266112,0.7224916586976381,0.5,0,2287,206851.63,570889.227484249,4089426.035822227,36.94823527,117.79617584,8.96,1.434,16.05,2.0
1699349233.4472609,0.6738598839804278,0.5,0,2287,206851.65,570889.2316952519,4089426.064702588,36.94823553,117.79617589,8.98,1.423,16.05,2.0
1699349233.4684772,0.6133086276947172,0.5,0,2287,206851.67,570889.2350251344,4089426.0924661593,36.94823578,117.79617593,9.01,1.411,16.05,2.0
1699349233.4884133,0.55998562543232,0.5,0,2287,206851.69,570889.2392454039,4089426.120237168,36.94823603,117.79617598,9.03,1.398,16.05,2.0
1699349233.5080218,0.5067262037599888,0.5,0,2287,206851.71,570889.2434656734,4089426.1480081766,36.94823628,117.79617603,9.05,1.387,16.05,2.0
1699349233.5279865,0.41810180991057944,0.5,0,2287,206851.73,570889.2476952096,4089426.174669833,36.94823652,117.79617608,9.08,1.376,16.05,2.0
1699349233.5486853,0.39029429889342043,0.5,0,2287,206851.75,570889.2519247459,4089426.2013314883,36.94823676,117.79617613,9.09,1.364,16.05,2.0
1699349233.568027,0.30827921073833364,0.5,0,2287,206851.77,570889.257044669,4089426.228000581,36.948237,117.79617619,9.11,1.355,16.05,2.0
1699349233.591586,0.24354688182365336,0.5,0,2287,206851.79,570889.2603838181,4089426.2546547996,36.94823724,117.79617623,9.14,1.352,16.05,2.0
1699349233.611478,0.15500531881187002,0.5,0,2287,206851.81,570889.2646133542,4089426.281316456,36.94823748,117.79617628,9.17,1.35,16.05,2.0
1699349233.631739,0.11475339438808177,0.5,0,2287,206851.83,570889.2670621162,4089426.3079632367,36.94823772,117.79617631,9.2,1.349,16.05,2.0
1699349233.6449134,0.05069837586027172,0.5,0,2287,206851.85,570889.2704012629,4089426.3346174546,36.94823796,117.79617635,9.23,1.347,16.04,2.0
1699349233.6616483,0.03554844067337116,0.5,0,2287,206851.87,570889.2719596378,4089426.361256797,36.9482382,117.79617637,9.26,1.347,16.04,2.0
1699349233.6818032,-0.03379342689027607,0.5,0,2287,206851.89,570889.2744083975,4089426.387903577,36.94823844,117.7961764,9.3,1.343,16.04,2.0
1699349233.703234,-0.0781464150923079,0.5,0,2287,206851.91,570889.2759667723,4089426.4145429214,36.94823868,117.79617642,9.34,1.343,16.04,2.0
1699349233.7226105,-0.11608218211784091,0.5,0,2287,206851.93,570889.2784155342,4089426.4411897017,36.94823892,117.79617645,9.37,1.349,16.04,2.0
1699349233.7432742,-0.1839570022394719,0.5,0,2287,206851.95,570889.2808642938,4089426.467836481,36.94823916,117.79617648,9.41,1.354,16.04,2.0
1699349233.7633457,-0.19611038108889575,0.5,0,2287,206851.97,570889.2824226686,4089426.4944758243,36.9482394,117.7961765,9.44,1.358,16.04,2.0
1699349233.7835267,-0.25750101705173256,0.5,0,2287,206851.99,570889.2857618175,4089426.5211300417,36.94823964,117.79617654,9.47,1.362,16.05,2.0
1699349233.8040617,-0.28822927931805103,0.5,0,2287,206852.01,570889.289100964,4089426.5477842614,36.94823988,117.79617658,9.49,1.362,16.05,2.0
1699349233.824442,-0.399693330553371,0.5,0,2287,206852.03,570889.2951205429,4089426.5733514396,36.94824011,117.79617665,9.51,1.364,16.05,2.0
1699349233.8447685,-0.6691187824212783,0.5,0,2287,206852.05,570889.3073913667,4089426.596751975,36.94824032,117.79617679,9.52,1.362,16.05,2.0
1699349233.8643637,-0.6906239562706857,0.5,0,2287,206852.07,570889.3125112894,4089426.623421069,36.94824056,117.79617685,9.52,1.364,16.05,2.0
1699349233.8849945,-0.6916844140357665,0.5,0,2287,206852.09,570889.3158504381,4089426.650075287,36.9482408,117.79617689,9.53,1.369,16.05,2.0
1699349233.905517,-0.6822092952944457,0.5,0,2287,206852.11,570889.320070707,4089426.677846296,36.94824105,117.79617694,9.53,1.377,16.05,2.0
1699349233.925933,-0.6781793091015584,0.5,0,2287,206852.13,570889.3243002427,4089426.704507951,36.94824129,117.79617699,9.53,1.388,16.05,2.0
1699349233.9460638,-0.6685515309143337,0.5,0,2287,206852.15,570889.3285205116,4089426.73227896,36.94824154,117.79617704,9.53,1.4,16.05,2.0
1699349233.9657369,-0.6848308950595967,0.5,0,2287,206852.17,570889.3336311674,4089426.7600574065,36.94824179,117.7961771,9.53,1.414,16.05,2.0
1699349233.986783,-0.6708719260515407,0.5,0,2287,206852.19,570889.3387418232,4089426.7878358527,36.94824204,117.79617716,9.52,1.428,16.05,2.0
1699349234.006976,-0.6874680016230903,0.5,0,2287,206852.21,570889.3438524813,4089426.8156143,36.94824229,117.79617722,9.52,1.436,16.05,2.0
1699349234.0271618,-0.7042256888067603,0.5,0,2287,206852.23,570889.348963137,4089426.843392747,36.94824254,117.79617728,9.52,1.436,16.05,2.0
1699349234.048293,-0.8288709872115037,0.5,0,2287,206852.25,570889.3525061538,4089426.845641202,36.94824256,117.79617732,9.53,1.424,16.04,2.0
1699349234.0688128,-0.846261787741037,0.5,0,2287,206852.27,570889.3576168094,4089426.8734196485,36.94824281,117.79617738,9.53,1.421,16.04,2.0
1699349234.0875802,-0.8942161884477827,0.5,0,2287,206852.29,570889.3627274652,4089426.901198095,36.94824306,117.79617744,9.54,1.416,16.04,2.0
1699349234.1076834,-0.9119515592623856,0.5,0,2287,206852.31,570889.3678381231,4089426.9289765423,36.94824331,117.7961775,9.54,1.414,16.04,2.0
1699349234.1320124,-0.9333352308221297,0.5,0,2287,206852.33,570889.3720583895,4089426.9567475514,36.94824356,117.79617755,9.55,1.419,16.04,2.0
1699349234.1520267,-0.9546291302412748,0.5,0,2287,206852.35,570889.376278658,4089426.9845185583,36.94824381,117.7961776,9.56,1.425,16.04,2.0
1699349234.1719096,-0.9700240976535911,0.5,0,2287,206852.37,570889.380489662,4089427.01339892,36.94824407,117.79617765,9.57,1.43,16.04,2.0
1699349234.1846979,-0.9911033145389475,0.5,0,2287,206852.39,570889.3847099306,4089427.041169929,36.94824432,117.7961777,9.58,1.43,16.04,2.0
1699349234.202351,-1.0091639379507371,0.5,0,2287,206852.41,570889.3898205861,4089427.0689483755,36.94824457,117.79617776,9.58,1.43,16.04,2.0
1699349234.2225585,-0.9939036275392024,0.5,0,2287,206852.43,570889.3940315878,4089427.097828736,36.94824483,117.79617781,9.58,1.43,16.04,2.0
1699349234.242974,-0.9189973359990936,0.5,0,2287,206852.45,570889.3956084957,4089427.1222493746,36.94824505,117.79617783,9.58,1.428,16.04,2.0
1699349234.2660372,-0.9031070182727724,0.5,0,2287,206852.47,570889.3998194973,4089427.151129735,36.94824531,117.79617788,9.58,1.427,16.04,2.0
1699349234.284493,-0.9234483151577902,0.5,0,2287,206852.49,570889.4040397635,4089427.1789007443,36.94824556,117.79617793,9.59,1.422,16.04,2.0
1699349234.3048937,-0.9414623082853638,0.5,0,2287,206852.51,570889.4091504209,4089427.2066791914,36.94824581,117.79617799,9.59,1.416,16.04,2.0
1699349234.324699,-0.9313484990240335,0.5,0,2287,206852.53,570889.4133706893,4089427.2344502,36.94824606,117.79617804,9.59,1.413,16.04,2.0
1699349234.345356,-0.9515202301086884,0.5,0,2287,206852.55,570889.4175909575,4089427.2622212092,36.94824631,117.79617809,9.6,1.413,16.04,2.0
1699349234.366921,-0.9636730800912985,0.5,0,2287,206852.57,570889.422692346,4089427.291109008,36.94824657,117.79617815,9.6,1.41,16.04,2.0
1699349234.3866572,-0.9533533082423861,0.5,0,2287,206852.59,570889.4269126143,4089427.318880016,36.94824682,117.7961782,9.6,1.405,16.04,2.0
1699349234.4077225,-0.9795174855446809,0.5,0,2287,206852.61,570889.4311421491,4089427.345541673,36.94824706,117.79617825,9.61,1.4,16.04,2.0
1699349234.4276605,-0.9980841821886449,0.5,0,2287,206852.63,570889.4362528066,4089427.3733201185,36.94824731,117.79617831,9.61,1.39,16.04,2.0
1699349234.446156,-1.0660098966031764,0.5,0,2287,206852.65,570889.4413912618,4089427.3977705077,36.94824753,117.79617837,9.62,1.38,16.04,2.0
1699349234.4664989,-1.0923761087832902,0.5,0,2287,206852.67,570889.4456207966,4089427.4244321636,36.94824777,117.79617842,9.63,1.377,16.04,2.0
1699349234.488003,-1.0819911932735484,0.5,0,2287,206852.69,570889.4498410649,4089427.452203172,36.94824802,117.79617847,9.63,1.37,16.04,2.0
1699349234.5093153,-1.1082385313223677,0.5,0,2287,206852.71,570889.4540705995,4089427.478864828,36.94824826,117.79617852,9.64,1.364,16.04,2.0
1699349234.5289655,-1.1338863925551452,0.5,0,2287,206852.73,570889.4591905212,4089427.5055339206,36.9482485,117.79617858,9.64,1.356,16.04,2.0
1699349234.5492854,-1.1298155018715332,0.5,0,2287,206852.75,570889.463420056,4089427.532195578,36.94824874,117.79617863,9.64,1.347,16.04,2.0
1699349234.573249,-1.1257012263223574,0.5,0,2287,206852.77,570889.4676495906,4089427.5588572333,36.94824898,117.79617868,9.64,1.34,16.04,2.0
1699349234.593106,-1.1215428730161239,0.5,0,2287,206852.79,570889.4718791253,4089427.5855188896,36.94824922,117.79617873,9.64,1.334,16.04,2.0
1699349234.6126628,-1.0630065535810722,0.5,0,2287,206852.81,570889.4752275398,4089427.611063754,36.94824945,117.79617877,9.63,1.33,16.04,2.0
1699349234.6255438,-1.0763997025692706,0.5,0,2287,206852.83,570889.4812193147,4089427.6399589917,36.94824971,117.79617884,9.62,1.329,16.04,2.0
1699349234.6427426,-1.0110292926838553,0.5,0,2287,206852.85,570889.4845584624,4089427.66661321,36.94824995,117.79617888,9.61,1.328,16.04,2.0
1699349234.6627715,-0.9148837080743618,0.5,0,2287,206852.87,570889.4878976101,4089427.693267429,36.94825019,117.79617892,9.59,1.328,16.04,2.0
1699349234.6830838,-0.8865751398859965,0.5,0,2287,206852.89,570889.4921364114,4089427.7188197314,36.94825042,117.79617897,9.58,1.334,16.04,2.0
1699349234.7027948,-0.8211781260567379,0.5,0,2287,206852.91,570889.4963659458,4089427.7454813872,36.94825066,117.79617902,9.56,1.344,16.04,2.0
1699349234.7239025,-0.8176189237244971,0.5,0,2287,206852.93,570889.5014858694,4089427.7721504816,36.9482509,117.79617908,9.55,1.353,16.04,2.0
1699349234.74262,-0.8143616125710267,0.5,0,2287,206852.95,570889.5066057908,4089427.798819576,36.94825114,117.79617914,9.54,1.36,16.04,2.0
1699349234.764109,-0.7795560270296156,0.5,0,2287,206852.97,570889.5108353252,4089427.825481232,36.94825138,117.79617919,9.53,1.362,16.04,2.0
1699349234.7846515,-0.8071298373669934,0.5,0,2287,206852.99,570889.5159552465,4089427.8521503247,36.94825162,117.79617925,9.53,1.365,16.04,2.0
1699349234.8034928,-0.8331929970528711,0.5,0,2287,206853.01,570889.5201847808,4089427.87881198,36.94825186,117.7961793,9.54,1.37,16.04,2.0
1699349234.8239913,-0.8522706645036678,0.5,0,2287,206853.03,570889.5244050483,4089427.90658299,36.94825211,117.79617935,9.55,1.374,16.04,2.0
1699349234.8443196,-0.9620672074039889,0.5,0,2287,206853.05,570889.531287212,4089427.9354856643,36.94825237,117.79617943,9.56,1.381,16.04,2.0
1699349234.8658369,-0.9580279834235916,0.5,0,2287,206853.07,570889.5355167462,4089427.96214732,36.94825261,117.79617948,9.56,1.386,16.03,2.0
1699349234.8851736,-1.01028838320371,0.5,0,2287,206853.09,570889.5406274005,4089427.989925767,36.94825286,117.79617954,9.57,1.392,16.03,2.0
1699349234.905205,-0.9992207440640085,0.5,0,2287,206853.11,570889.544847668,4089428.0176967755,36.94825311,117.79617959,9.57,1.399,16.03,2.0
1699349234.9256117,-0.991036110888551,0.5,0,2287,206853.13,570889.5499583223,4089428.045475223,36.94825336,117.79617965,9.56,1.404,16.03,2.0
1699349234.9458168,-0.9902893756070139,0.5,0,2287,206853.15,570889.5550782456,4089428.072144317,36.9482536,117.79617971,9.55,1.406,16.03,2.0
1699349234.9661548,-0.9488797099090448,0.5,0,2287,206853.17,570889.5592985128,4089428.0999153247,36.94825385,117.79617976,9.54,1.404,16.03,2.0
1699349234.9864838,-0.9073311492063778,0.5,0,2287,206853.19,570889.56351878,4089428.127686334,36.9482541,117.79617981,9.53,1.401,16.03,2.0
1699349235.0067081,-0.8656411306299089,0.5,0,2287,206853.21,570889.5677390473,4089428.155457343,36.94825435,117.79617986,9.52,1.399,16.03,2.0
1699349235.026884,-0.6974032916123025,0.5,0,2287,206853.23,570889.5692974185,4089428.1820966857,36.94825459,117.79617988,9.5,1.4,16.04,2.0
1699349235.0471425,-0.6244161163724211,0.5,0,2287,206853.25,570889.5735176858,4089428.209867695,36.94825484,117.79617993,9.48,1.405,16.04,2.0
1699349235.067472,-0.5512703755694189,0.5,0,2287,206853.27,570889.5777379529,4089428.2376387035,36.94825509,117.79617998,9.46,1.408,16.04,2.0
1699349235.0879307,-0.5083608994352083,0.5,0,2287,206853.29,570889.5819582201,4089428.265409713,36.94825534,117.79618003,9.45,1.407,16.04,2.0
1699349235.107936,-0.4652882519881239,0.5,0,2287,206853.31,570889.5861784872,4089428.2931807223,36.94825559,117.79618008,9.44,1.404,16.04,2.0
1699349235.1283677,-0.42204930142404906,0.5,0,2287,206853.33,570889.5903987543,4089428.3209517305,36.94825584,117.79618013,9.43,1.395,16.04,2.0
1699349235.152664,-0.4167236808082176,0.5,0,2287,206853.35,570889.5946282881,4089428.347613387,36.94825608,117.79618018,9.43,1.388,16.04,2.0
1699349235.1716983,-0.37319712405999306,0.5,0,2287,206853.37,570889.5988485574,4089428.375384395,36.94825633,117.79618023,9.42,1.385,16.04,2.0
1699349235.191451,-0.32949493016922826,0.5,0,2287,206853.39,570889.6030688244,4089428.4031554046,36.94825658,117.79618028,9.41,1.384,16.04,2.0
1699349235.211532,-0.29345939090409157,0.5,0,2287,206853.41,570889.6072983559,4089428.429817059,36.94825682,117.79618033,9.4,1.38,16.04,2.0
1699349235.2320592,-0.6631844492141808,0.5,0,2287,206853.43,570889.6204410314,4089428.4554437404,36.94825705,117.79618048,9.4,1.376,16.04,2.0
1699349235.2448542,-0.6216062146531127,0.5,0,2287,206853.45,570889.6246612982,4089428.4832147495,36.9482573,117.79618053,9.39,1.37,16.04,2.0
1699349235.261849,-0.5877823326843257,0.5,0,2287,206853.47,570889.6288908318,4089428.509876406,36.94825754,117.79618058,9.38,1.359,16.04,2.0
1699349235.2827601,-0.5468047675975899,0.5,0,2287,206853.49,570889.6322299787,4089428.536530624,36.94825778,117.79618062,9.38,1.354,16.04,2.0
1699349235.3043404,-0.4822407652974984,0.5,0,2287,206853.51,570889.6364595123,4089428.5631922795,36.94825802,117.79618067,9.36,1.349,16.04,2.0
1699349235.3247056,-0.4860321370834458,0.5,0,2287,206853.53,570889.6415794326,4089428.589861374,36.94825826,117.79618073,9.35,1.345,16.04,2.0
1699349235.3447068,-0.42162138168441926,0.5,0,2287,206853.55,570889.6458089661,4089428.6165230297,36.9482585,117.79618078,9.33,1.339,16.04,2.0
1699349235.3659549,-0.38755895225727033,0.5,0,2287,206853.57,570889.6500384995,4089428.6431846865,36.94825874,117.79618083,9.32,1.336,16.04,2.0
1699349235.385146,-0.34505395190411686,0.5,0,2287,206853.59,570889.6533776462,4089428.669838905,36.94825898,117.79618087,9.32,1.334,16.04,2.0
1699349235.404925,-0.2798807506742942,0.5,0,2287,206853.61,570889.6567260596,4089428.695383771,36.94825921,117.79618091,9.31,1.335,16.04,2.0
1699349235.4258935,0.007538070815974517,0.5,0,2287,206853.63,570889.6555947341,4089428.724219506,36.94825947,117.7961809,9.3,1.336,16.04,2.0
1699349235.4459753,0.013668152417248757,0.5,0,2287,206853.65,570889.6598242676,4089428.750881162,36.94825971,117.79618095,9.3,1.337,16.03,2.0
1699349235.4664786,0.08157896938707325,0.5,0,2287,206853.67,570889.6631726809,4089428.776426028,36.94825994,117.79618099,9.29,1.337,16.03,2.0
1699349235.4867592,0.08810338300176793,0.5,0,2287,206853.69,570889.6674022143,4089428.8030876843,36.94826018,117.79618104,9.29,1.341,16.03,2.0
1699349235.508124,0.12512074890187874,0.5,0,2287,206853.71,570889.6716317498,4089428.82974934,36.94826042,117.79618109,9.28,1.346,16.03,2.0
1699349235.5273569,0.172548800965248,0.5,0,2287,206853.73,570889.6749708941,4089428.8564035585,36.94826066,117.79618113,9.28,1.347,16.03,2.0
1699349235.547734,0.17965344756692753,0.5,0,2287,206853.75,570889.6792004273,4089428.8830652144,36.9482609,117.79618118,9.28,1.344,16.03,2.0
1699349235.5678246,0.18686177416930536,0.5,0,2287,206853.77,570889.6834299605,4089428.9097268716,36.94826114,117.79618123,9.28,1.341,16.03,2.0
1699349235.5876734,0.23578444174377133,0.5,0,2287,206853.79,570889.6867691069,4089428.936381089,36.94826138,117.79618127,9.28,1.341,16.03,2.0
1699349235.6121323,0.24351477659585205,0.5,0,2287,206853.81,570889.69099864,4089428.963042746,36.94826162,117.79618132,9.28,1.344,16.03,2.0
1699349235.6316469,0.17929990050020786,0.5,0,2287,206853.83,570889.697843735,4089428.996382832,36.94826192,117.7961814,9.28,1.353,16.03,2.0
1699349235.6518254,0.19896527914066842,0.5,0,2287,206853.85,570889.7011828814,4089429.02303705,36.94826216,117.79618144,9.29,1.365,16.03,2.0
1699349235.6715267,0.2161190141895887,0.5,0,2287,206853.87,570889.7054031477,4089429.0508080595,36.94826241,117.79618149,9.29,1.377,16.03,2.0
1699349235.6916006,0.19378579079193847,0.5,0,2287,206853.89,570889.7096326806,4089429.0774697154,36.94826265,117.79618154,9.3,1.389,16.03,2.0
1699349235.7048528,0.2114116576331778,0.5,0,2287,206853.91,570889.7138529469,4089429.105240724,36.9482629,117.79618159,9.3,1.398,16.03,2.0
1699349235.7217202,0.18533143957062892,0.5,0,2287,206853.93,570889.7189635998,4089429.1330191717,36.94826315,117.79618165,9.3,1.406,16.03,2.0
1699349235.7421072,0.20317657237545803,0.5,0,2287,206853.95,570889.7231838659,4089429.160790181,36.9482634,117.7961817,9.3,1.409,16.02,2.0
1699349235.7626688,0.17659836258618244,0.5,0,2287,206853.97,570889.7282945188,4089429.1885686275,36.94826365,117.79618176,9.3,1.412,16.02,2.0
1699349235.7832274,0.22506730294555322,0.5,0,2287,206853.99,570889.7325147849,4089429.216339637,36.9482639,117.79618181,9.29,1.414,16.02,2.0
1699349235.8036282,0.24343843575190388,0.5,0,2287,206854.01,570889.7367350532,4089429.244110645,36.94826415,117.79618186,9.29,1.421,16.02,2.0
1699349235.823971,0.3123769949840953,0.5,0,2287,206854.03,570889.7409367857,4089429.2741003595,36.94826442,117.79618191,9.28,1.431,16.02,2.0
1699349235.844003,0.3415865792472697,0.5,0,2287,206854.05,570889.7451477825,4089429.302980722,36.94826468,117.79618196,9.28,1.437,16.02,2.0
1699349235.864465,0.36118766537189434,0.5,0,2287,206854.07,570889.7493680485,4089429.3307517306,36.94826493,117.79618201,9.28,1.44,16.02,2.0
1699349235.884099,0.42174968659404805,0.5,0,2287,206854.09,570889.75357905,4089429.3596320925,36.94826519,117.79618206,9.27,1.44,16.02,2.0
1699349235.9059749,0.39462888735003404,0.5,0,2287,206854.11,570889.7586897026,4089429.3874105397,36.94826544,117.79618212,9.27,1.437,16.02,2.0
1699349235.9246716,0.425363733970377,0.5,0,2287,206854.13,570889.7629007016,4089429.4162909007,36.9482657,117.79618217,9.27,1.435,16.02,2.0
1699349235.9465842,0.47654863490235067,0.5,0,2287,206854.15,570889.7671209675,4089429.4440619103,36.94826595,117.79618222,9.26,1.433,16.02,2.0
1699349235.9665067,0.5083255391870197,0.5,0,2287,206854.17,570889.7713319664,4089429.4729422717,36.94826621,117.79618227,9.26,1.431,16.02,2.0
1699349235.9865692,0.529971810639527,0.5,0,2287,206854.19,570889.7755522323,4089429.500713281,36.94826646,117.79618232,9.26,1.428,16.02,2.0
1699349236.006398,0.5628478395755131,0.5,0,2287,206854.21,570889.7797632312,4089429.529593642,36.94826672,117.79618237,9.26,1.419,16.02,2.0
1699349236.0268517,0.5283582076759169,0.5,0,2287,206854.23,570889.7814884038,4089429.5362646366,36.94826678,117.79618239,9.26,1.398,16.02,2.0
1699349236.0466743,0.5810434912499237,0.5,0,2287,206854.25,570889.7857086695,4089429.5640356448,36.94826703,117.79618244,9.25,1.389,16.02,2.0
1699349236.067397,0.5926826166915238,0.5,0,2287,206854.27,570889.7899382042,4089429.590697302,36.94826727,117.79618249,9.25,1.376,16.02,2.0
1699349236.0887454,0.553327908668139,0.5,0,2287,206854.29,570889.7950581233,4089429.617366395,36.94826751,117.79618255,9.25,1.361,16.02,2.0
1699349236.1108937,0.5953240796001181,0.5,0,2287,206854.31,570889.7992876557,4089429.6440280513,36.94826775,117.7961826,9.24,1.347,16.02,2.0
1699349236.124934,0.6071371485044829,0.5,0,2287,206854.33,570889.8035171881,4089429.6706897076,36.94826799,117.79618265,9.24,1.327,16.02,2.0
1699349236.1408381,0.6077028875675649,0.5,0,2287,206854.35,570889.8077559873,4089429.696242011,36.94826822,117.7961827,9.24,1.31,16.02,2.0
1699349236.1611645,0.642557402987077,0.5,0,2287,206854.37,570889.8110951328,4089429.7228962304,36.94826846,117.79618274,9.25,1.3,16.02,2.0
1699349236.1808643,0.6437316187302979,0.5,0,2287,206854.39,570889.815333932,4089429.7484485325,36.94826869,117.79618279,9.25,1.295,16.02,2.0
1699349236.2017744,0.6989985944427972,0.5,0,2287,206854.41,570889.8186823444,4089429.773993398,36.94826892,117.79618283,9.25,1.29,16.02,2.0
1699349236.2215822,1.5615768143262463,0.5,0,2287,206854.43,570889.8095097357,4089429.8060902534,36.94826921,117.79618273,9.26,1.288,16.01,2.0
1699349236.2423193,1.510909498832417,0.5,0,2287,206854.45,570889.8137485324,4089429.831642557,36.94826944,117.79618278,9.28,1.286,16.01,2.0
1699349236.2626932,1.533849683774584,0.5,0,2287,206854.47,570889.8171062116,4089429.8560780706,36.94826966,117.79618282,9.29,1.278,16.01,2.0
1699349236.284301,1.5400684609925819,0.5,0,2287,206854.49,570889.820454624,4089429.881622935,36.94826989,117.79618286,9.31,1.269,16.01,2.0
1699349236.3042912,1.5085015081506938,0.5,0,2287,206854.51,570889.8247026898,4089429.9060658864,36.94827011,117.79618291,9.32,1.264,16.01,2.0
1699349236.322776,1.5166242310619336,0.5,0,2287,206854.53,570889.8280511021,4089429.931610752,36.94827034,117.79618295,9.34,1.259,16.01,2.0
1699349236.3430521,1.4552902741741283,0.5,0,2287,206854.55,570889.8322991679,4089429.9560537017,36.94827056,117.796183,9.36,1.253,16.01,2.0
1699349236.363363,1.4521777662626534,0.5,0,2287,206854.57,570889.8356568469,4089429.980489216,36.94827078,117.79618304,9.38,1.248,16.01,2.0
1699349236.3839343,1.4501609101795563,0.5,0,2287,206854.59,570889.8390145259,4089430.0049247285,36.948271,117.79618308,9.4,1.248,16.01,2.0
1699349236.4048326,1.4628136243241556,0.5,0,2287,206854.61,570889.8423629381,4089430.030469594,36.94827123,117.79618312,9.42,1.248,16.01,2.0
1699349236.4249809,1.463241497122526,0.5,0,2287,206854.63,570889.8457206148,4089430.0549051072,36.94827145,117.79618316,9.44,1.245,16.01,2.0
1699349236.445769,1.3549317407374066,0.5,0,2287,206854.65,570889.8508312688,4089430.0826835544,36.9482717,117.79618322,9.47,1.248,16.01,2.0
1699349236.4657292,1.3570947703647154,0.5,0,2287,206854.67,570889.8541889478,4089430.1071190666,36.94827192,117.79618326,9.49,1.25,16.01,2.0
1699349236.4857965,1.360516000018856,0.5,0,2287,206854.69,570889.8575466245,4089430.13155458,36.94827214,117.7961833,9.51,1.249,16.01,2.0
1699349236.5066705,1.3027883184119124,0.5,0,2287,206854.71,570889.8617946923,4089430.15599753,36.94827236,117.79618335,9.53,1.243,16.01,2.0
1699349236.5268035,1.3082092177015165,0.5,0,2287,206854.73,570889.865152369,4089430.1804330437,36.94827258,117.79618339,9.55,1.239,16.01,2.0
1699349236.5467966,1.251260162261584,0.5,0,2287,206854.75,570889.8694004344,4089430.2048759945,36.9482728,117.79618344,9.57,1.232,16.01,2.0
1699349236.5700653,1.2891773835691926,0.5,0,2287,206854.77,570889.8727581132,4089430.229311508,36.94827302,117.79618348,9.58,1.225,16.01,2.0
1699349236.5874474,1.328530766304931,0.5,0,2287,206854.79,570889.8761157921,4089430.2537470204,36.94827324,117.79618352,9.59,1.221,16.01,2.0
1699349236.6092165,1.2884168182032714,0.5,0,2287,206854.81,570889.8803731244,4089430.2770806183,36.94827345,117.79618357,9.6,1.221,16.01,2.0
1699349236.6307762,1.3298852924615225,0.5,0,2287,206854.83,570889.883730803,4089430.3015161306,36.94827367,117.79618361,9.61,1.223,16.01,2.0
1699349236.651396,1.486957968048272,0.5,0,2287,206854.85,570889.8861702925,4089430.3292722646,36.94827392,117.79618364,9.62,1.223,16.0,2.0
1699349236.6708672,1.5633257404842298,0.5,0,2287,206854.87,570889.8895279712,4089430.3537077783,36.94827414,117.79618368,9.62,1.22,16.0,2.0
1699349236.6807325,1.625315109413183,0.5,0,2287,206854.89,570889.8928949167,4089430.377033938,36.94827435,117.79618372,9.62,1.218,16.0,2.0
1699349236.701622,1.6050956222384476,0.5,0,2287,206854.91,570889.897142982,4089430.401476889,36.94827457,117.79618377,9.63,1.215,16.0,2.0
1699349236.723249,1.716084291886447,0.5,0,2287,206854.93,570889.9005006606,4089430.425912401,36.94827479,117.79618381,9.62,1.217,16.0,2.0
1699349236.741639,1.781850258489702,0.5,0,2287,206854.95,570889.9038676061,4089430.449238562,36.948275,117.79618385,9.62,1.22,16.0,2.0
1699349236.7618961,1.7941845508465617,0.5,0,2287,206854.97,570889.9081156714,4089430.4736815123,36.94827522,117.7961839,9.62,1.219,16.0,2.0
1699349236.7825243,1.8794586050759956,0.5,0,2287,206854.99,570889.9114733499,4089430.498117026,36.94827544,117.79618394,9.62,1.221,16.0,2.0
1699349236.8028085,1.9971149349031063,0.5,0,2287,206855.01,570889.9148310262,4089430.5225525387,36.94827566,117.79618398,9.61,1.223,16.0,2.0
1699349236.8225183,2.086498507635826,0.5,0,2287,206855.03,570889.9181887048,4089430.5469880523,36.94827588,117.79618402,9.61,1.224,16.0,2.0
1699349236.8426654,2.222932673896368,0.5,0,2287,206855.05,570889.9206559967,4089430.571416127,36.9482761,117.79618405,9.62,1.222,16.0,2.0
1699349236.862937,2.2691053324756063,0.5,0,2287,206855.07,570889.9240229421,4089430.5947422865,36.94827631,117.79618409,9.63,1.223,15.99,2.0
1699349236.883769,2.3355512109851064,0.5,0,2287,206855.09,570889.9273806205,4089430.6191777997,36.94827653,117.79618413,9.64,1.224,15.99,2.0
1699349236.9064765,2.2960848916190386,0.5,0,2287,206855.11,570889.9316286856,4089430.6436207504,36.94827675,117.79618418,9.66,1.219,15.99,2.0
1699349236.924777,2.336180644680378,0.5,0,2287,206855.13,570889.934986364,4089430.6680562636,36.94827697,117.79618422,9.68,1.215,15.99,2.0
1699349236.9450097,2.2796044335436303,0.5,0,2287,206855.15,570889.9392436958,4089430.691389861,36.94827718,117.79618427,9.7,1.216,15.99,2.0
1699349236.9652216,2.32367771864868,0.5,0,2287,206855.17,570889.9426013741,4089430.7158253747,36.9482774,117.79618431,9.72,1.217,15.99,2.0
1699349236.9854357,2.3203211358799893,0.5,0,2287,206855.19,570889.9459683194,4089430.7391515346,36.94827761,117.79618435,9.75,1.22,15.99,2.0
1699349237.0058095,2.2562397255319966,0.5,0,2287,206855.21,570889.950216382,4089430.7635944863,36.94827783,117.7961844,9.78,1.225,15.99,2.0
1699349237.0265963,1.723110937911949,0.5,0,2287,206855.23,570889.9606415567,4089430.7947456166,36.94827811,117.79618452,9.81,1.231,15.99,2.0
1699349237.0466132,1.684407602445925,0.5,0,2287,206855.25,570889.9648896215,4089430.8191885687,36.94827833,117.79618457,9.83,1.233,15.99,2.0
1699349237.06622,1.7031411920725745,0.5,0,2287,206855.27,570889.9682472998,4089430.843624081,36.94827855,117.79618461,9.86,1.236,15.99,2.0
1699349237.086471,1.6365987817561563,0.5,0,2287,206855.29,570889.9724953645,4089430.8680670327,36.94827877,117.79618466,9.89,1.236,15.98,2.0
1699349237.1073048,1.6908619388106045,0.5,0,2287,206855.31,570889.9758530428,4089430.892502545,36.94827899,117.7961847,9.91,1.237,15.98,2.0
1699349237.1277113,1.657491986148987,0.5,0,2287,206855.33,570889.9801011052,4089430.916945496,36.94827921,117.79618475,9.93,1.244,15.98,2.0
1699349237.151,1.71733818300428,0.5,0,2287,206855.35,570889.9834587834,4089430.9413810084,36.94827943,117.79618479,9.95,1.249,15.98,2.0
1699349237.1728535,1.8340073684808025,0.5,0,2287,206855.37,570889.9868071948,4089430.966925875,36.94827966,117.79618483,9.96,1.252,15.98,2.0
1699349237.1907961,1.8368845109182848,0.5,0,2287,206855.39,570889.9910552595,4089430.991368826,36.94827988,117.79618488,9.97,1.26,15.98,2.0
1699349237.204059,1.9612211589166735,0.5,0,2287,206855.41,570889.9944036707,4089431.016913692,36.94828011,117.79618492,9.98,1.271,15.98,2.0
1699349237.2211637,1.9378385021097726,0.5,0,2287,206855.43,570889.9986517353,4089431.0413566427,36.94828033,117.79618497,10.0,1.277,15.98,2.0
1699349237.2411933,3.3924774785705116,0.5,0,2287,206855.45,570889.9904158476,4089431.0679141707,36.94828057,117.79618488,10.01,1.283,15.97,2.0
1699349237.261348,3.5530172714297383,0.5,0,2287,206855.47,570889.9937642589,4089431.093459036,36.9482808,117.79618492,10.02,1.29,15.97,2.0
1699349237.2816877,3.514317420450173,0.5,0,2287,206855.49,570889.9988934455,4089431.1190187773,36.94828103,117.79618498,10.03,1.296,15.97,2.0
1699349237.3020084,3.5498556552150413,0.5,0,2287,206855.51,570890.0031322433,4089431.1445710817,36.94828126,117.79618503,10.05,1.299,15.97,2.0
1699349237.3224263,3.5889010166642215,0.5,0,2287,206855.53,570890.0073710408,4089431.1701233853,36.94828149,117.79618508,10.07,1.301,15.97,2.0
1699349237.3426192,3.6316482870274402,0.5,0,2287,206855.55,570890.0116098385,4089431.1956756883,36.94828172,117.79618513,10.09,1.305,15.97,2.0
1699349237.3631358,3.648038098169424,0.5,0,2287,206855.57,570890.015848634,4089431.2212279923,36.94828195,117.79618518,10.12,1.302,15.97,2.0
1699349237.383495,3.6685694263305626,0.5,0,2287,206855.59,570890.0200874337,4089431.2467802954,36.94828218,117.79618523,10.15,1.3,15.97,2.0
1699349237.403154,3.66321918549099,0.5,0,2287,206855.61,570890.0243262314,4089431.2723326,36.94828241,117.79618528,10.19,1.302,15.97,2.0
1699349237.4248292,3.7855360504459847,0.5,0,2287,206855.63,570890.0285372284,4089431.3012129613,36.94828267,117.79618533,10.22,1.306,15.96,2.0
1699349237.4449718,3.822264365354757,0.5,0,2287,206855.65,570890.0327760259,4089431.3267652667,36.9482829,117.79618538,10.25,1.308,15.96,2.0
1699349237.4660451,3.864342376318722,0.5,0,2287,206855.67,570890.0370148234,4089431.3523175693,36.94828313,117.79618543,10.28,1.306,15.96,2.0
1699349237.4848192,3.91211261439034,0.5,0,2287,206855.69,570890.0412536209,4089431.3778698724,36.94828336,117.79618548,10.31,1.307,15.96,2.0
1699349237.5052295,4.000168209044314,0.5,0,2287,206855.71,570890.0454831515,4089431.404531529,36.9482836,117.79618553,10.34,1.306,15.96,2.0
1699349237.5268257,4.191984996289374,0.5,0,2287,206855.73,570890.0488315623,4089431.430076395,36.94828383,117.79618557,10.37,1.303,15.96,2.0
1699349237.5452118,4.232871156069476,0.5,0,2287,206855.75,570890.0530703597,4089431.455628699,36.94828406,117.79618562,10.41,1.299,15.96,2.0
1699349237.5653014,4.448108845791781,0.5,0,2287,206855.77,570890.0564187706,4089431.4811735647,36.94828429,117.79618566,10.44,1.296,15.96,2.0
1699349237.5857582,4.56833745572023,0.5,0,2287,206855.79,570890.0606575679,4089431.506725869,36.94828452,117.79618571,10.46,1.305,15.96,2.0
1699349237.6077175,4.697412771243877,0.5,0,2287,206855.81,570890.0648963653,4089431.532278172,36.94828475,117.79618576,10.48,1.318,15.96,2.0
1699349237.6281018,4.786909893718497,0.5,0,2287,206855.83,570890.0708603344,4089431.564501468,36.94828504,117.79618583,10.5,1.328,15.96,2.0
1699349237.6466272,4.786909893718497,0.5,1,2287,206855.85,570890.0750991316,4089431.5900537716,36.94828527,117.79618588,10.53,1.333,15.96,2.0
1699349237.667055,-5.183789251731538,0.5,1,2287,206855.87,570890.079328662,4089431.6167154284,36.94828551,117.79618593,10.55,1.335,15.96,2.0
1699349237.6911433,-5.284096669847623,0.5,1,2287,206855.89,570890.0835581924,4089431.6433770843,36.94828575,117.79618598,10.58,1.335,15.96,2.0
1699349237.7111259,-5.406801388534297,0.5,1,2287,206855.91,570890.0877969896,4089431.6689293883,36.94828598,117.79618603,10.61,1.334,15.96,2.0
1699349237.7310364,-5.508238997164937,0.5,1,2287,206855.93,570890.0920265197,4089431.695591045,36.94828622,117.79618608,10.64,1.339,15.96,2.0
1699349237.740602,-5.610083870506682,0.5,1,2287,206855.95,570890.09625605,4089431.7222527005,36.94828646,117.79618613,10.67,1.345,15.96,2.0
1699349237.7609992,-5.68227798969715,0.5,1,2287,206855.97,570890.1004855825,4089431.7489143577,36.9482867,117.79618618,10.69,1.349,15.96,2.0
1699349237.7812743,-5.901785566992918,0.5,1,2287,206855.99,570890.1056054991,4089431.7755834535,36.94828694,117.79618624,10.72,1.36,15.96,2.0
1699349237.802492,-5.977414668947869,0.5,1,2287,206856.01,570890.1098350293,4089431.802245109,36.94828718,117.79618629,10.74,1.368,15.96,2.0
1699349237.821665,-6.145397948965361,0.5,1,2287,206856.03,570890.1149549459,4089431.8289142037,36.94828742,117.79618635,10.75,1.375,15.96,2.0
1699349237.8424141,-6.916496958327956,0.5,1,2287,206856.05,570890.1245175302,4089431.856729839,36.94828767,117.79618646,10.76,1.378,15.96,2.0
1699349237.8627799,-6.9832680630203825,0.5,1,2287,206856.07,570890.1287470603,4089431.883391496,36.94828791,117.79618651,10.77,1.385,15.96,2.0
1699349237.883463,-7.156406717051402,0.5,1,2287,206856.09,570890.1338577121,4089431.911169942,36.94828816,117.79618657,10.78,1.396,15.96,2.0
1699349237.9032452,-7.173350570244257,0.5,1,2287,206856.11,570890.1380779753,4089431.9389409525,36.94828841,117.79618662,10.78,1.409,15.96,2.0
1699349237.9235084,-7.191156695932885,0.5,1,2287,206856.13,570890.1422982384,4089431.966711962,36.94828866,117.79618667,10.78,1.425,15.96,2.0
1699349237.9437356,-7.293122951886241,0.5,1,2287,206856.15,570890.1473996211,4089431.995599762,36.94828892,117.79618673,10.77,1.441,15.96,2.0
